City_ID,City,Country,Lat,Lng,Max Temp,Humidity,Cloudiness,Wind Speed,Current Description
0,Le Portel,FR,50.7056,1.5757,44.6,70,75,5.75,broken clouds
1,Saskylakh,RU,71.9167,114.0833,-15.74,87,100,10.8,overcast clouds
2,Busselton,AU,-33.65,115.3333,91.0,40,0,3.0,clear sky
3,Delvada,IN,20.7667,71.0333,67.57,46,0,5.95,clear sky
4,Atar,MR,20.5169,-13.0499,62.51,24,86,11.74,overcast clouds
5,Massaranduba,BR,-7.2003,-35.7892,73.4,83,40,9.22,scattered clouds
6,Rikitea,PF,-23.1203,-134.9692,78.85,72,2,14.41,clear sky
7,Qaanaaq,GL,77.484,-69.3632,11.41,91,86,1.74,overcast clouds
8,Sambava,MG,-14.2667,50.1667,78.71,85,100,1.92,light rain
9,Hualmay,PE,-11.0964,-77.6139,70.11,83,68,7.49,broken clouds
10,Kavieng,PG,-2.5744,150.7967,84.11,62,96,6.49,overcast clouds
11,Port Elizabeth,ZA,-33.918,25.5701,68.0,94,75,3.44,broken clouds
12,Kapaa,US,22.0752,-159.319,73.4,83,75,19.57,light rain
13,Georgetown,MY,5.4112,100.3354,84.2,65,20,5.75,few clouds
14,Los Alamos,US,35.8881,-106.307,37.4,52,1,5.75,clear sky
15,Lagoa,PT,39.05,-27.9833,58.69,73,100,11.7,overcast clouds
16,Norman Wells,CA,65.282,-126.8329,5.0,85,90,4.61,light snow
17,Fortuna,US,40.5982,-124.1573,46.4,93,75,6.55,broken clouds
18,Chokurdakh,RU,70.6333,147.9167,-42.0,81,44,5.95,scattered clouds
19,Avarua,CK,-21.2078,-159.775,86.0,70,20,4.61,few clouds
20,Minas,UY,-34.3759,-55.2377,69.8,88,0,10.36,clear sky
21,Arraial Do Cabo,BR,-22.9661,-42.0278,74.62,91,29,10.51,scattered clouds
22,Mount Isa,AU,-20.7333,139.5,93.2,46,88,13.8,overcast clouds
23,Dikson,RU,73.5069,80.5464,-26.28,83,3,6.06,clear sky
24,Atuona,PF,-9.8,-139.0333,78.42,78,57,14.07,broken clouds
25,Ushuaia,AR,-54.8,-68.3,46.4,81,75,25.32,light intensity drizzle
26,Rawson,AR,-43.3002,-65.1023,75.72,48,0,5.48,clear sky
27,San Nicolas,PH,18.1725,120.5953,84.2,79,75,4.61,broken clouds
28,Krasnouralsk,RU,58.3638,60.0407,-15.95,88,99,5.48,overcast clouds
29,Hilo,US,19.7297,-155.09,75.2,64,75,6.8,light rain
30,Ilulissat,GL,69.2167,-51.1,15.8,67,89,2.3,overcast clouds
31,Yellowknife,CA,62.456,-114.3525,-18.4,76,75,4.61,broken clouds
32,Bluff,NZ,-46.6,168.3333,62.01,80,79,7.0,moderate rain
33,Punta Arenas,CL,-53.15,-70.9167,46.4,71,90,19.57,overcast clouds
34,Daru,PG,-9.0763,143.2092,84.11,73,93,6.22,overcast clouds
35,Bredasdorp,ZA,-34.5322,20.0403,62.6,94,14,4.99,few clouds
36,Easthampton,US,42.2668,-72.669,32.0,64,90,4.61,overcast clouds
37,Saint-Francois,FR,46.4154,3.9054,51.01,71,0,12.66,clear sky
38,Bethel,US,41.3712,-73.414,30.99,74,90,4.07,overcast clouds
39,Hobart,AU,-42.8794,147.3294,72.0,37,75,17.27,broken clouds
40,Gorey,IE,52.6747,-6.2925,36.0,96,0,6.96,clear sky
41,Cape Town,ZA,-33.9258,18.4232,64.99,82,0,3.44,clear sky
42,Severo-Kurilsk,RU,50.6789,156.125,21.61,90,60,3.8,broken clouds
43,Havre-Saint-Pierre,CA,50.2334,-63.5986,-2.2,84,90,6.91,overcast clouds
44,Platanos,GR,37.6667,21.6167,53.6,87,75,4.61,light rain
45,Albany,US,42.6001,-73.9662,33.01,59,23,5.19,few clouds
46,Victoria,HK,22.2855,114.1577,71.01,77,90,1.01,overcast clouds
47,Henties Bay,NA,-22.116,14.2845,68.0,89,84,4.63,broken clouds
48,Longyearbyen,SJ,78.2186,15.6401,14.0,62,0,10.36,clear sky
49,Khatanga,RU,71.9667,102.5,-34.26,83,83,3.96,broken clouds
50,Laizhou,CN,37.1717,119.9214,34.99,83,100,12.62,overcast clouds
51,Zhuhai,CN,22.2769,113.5678,69.8,78,20,6.91,few clouds
52,Cidreira,BR,-30.1811,-50.2056,74.25,84,99,17.29,overcast clouds
53,Hofn,IS,64.2539,-15.2082,28.49,88,0,24.25,clear sky
54,Portland,US,45.5234,-122.6762,45.0,76,75,2.89,broken clouds
55,Castro,BR,-24.7911,-50.0119,63.54,98,100,7.23,overcast clouds
56,Saldanha,ZA,-33.0117,17.9442,64.4,77,0,9.22,clear sky
57,Rietavas,LT,55.7194,21.9311,37.4,81,40,13.8,scattered clouds
58,Pimentel,PE,-6.8367,-79.9342,71.6,73,75,12.66,broken clouds
59,Kampene,CD,-3.6,26.6667,68.11,96,100,0.67,light rain
60,Lorengau,PG,-2.0226,147.2712,85.86,58,100,3.94,overcast clouds
61,Bay Roberts,CA,47.5999,-53.2648,30.0,96,100,11.01,snow
62,Okhotsk,RU,59.3833,143.3,-9.4,85,99,13.04,overcast clouds
63,Puerto Ayora,EC,-0.7393,-90.3518,75.99,93,92,1.01,overcast clouds
64,Kaitangata,NZ,-46.2817,169.8464,68.0,50,67,11.99,moderate rain
65,Vestmannaeyjar,IS,63.4427,-20.2734,29.66,89,34,24.54,scattered clouds
66,Ahipara,NZ,-35.1667,173.1667,67.05,57,19,10.54,few clouds
67,Jaguey Grande,CU,22.5269,-81.1286,60.8,94,20,5.75,moderate rain
68,Port Lincoln,AU,-34.7333,135.8667,75.43,38,0,10.63,clear sky
69,San Patricio,US,28.017,-97.5169,63.0,100,90,3.56,mist
70,Hambantota,LK,6.1241,81.1185,79.12,81,60,12.95,broken clouds
71,Pevek,RU,69.7008,170.3133,-17.64,87,100,2.95,overcast clouds
72,Cabo San Lucas,MX,22.8909,-109.9124,70.0,83,75,9.22,broken clouds
73,Jamestown,US,42.097,-79.2353,34.0,69,90,20.71,light snow
74,Kangaatsiaq,GL,68.3065,-53.4641,15.1,83,99,5.1,overcast clouds
75,Jacareacanga,BR,-6.2222,-57.7528,69.6,97,100,1.14,overcast clouds
76,Nishihara,JP,26.1842,127.7558,69.8,94,75,17.27,light rain
77,Nicoya,CR,10.1483,-85.452,80.6,65,0,10.36,clear sky
78,Thompson,CA,55.7435,-97.8558,-9.4,84,90,3.24,light snow
79,Chapais,CA,49.7834,-74.8492,5.0,85,90,9.22,light snow
80,Saint-Philippe,RE,-21.3585,55.7679,82.4,74,0,4.61,clear sky
81,Saint George,US,37.1041,-113.5841,50.0,46,1,6.91,clear sky
82,Bukama,CD,-9.2,25.85,67.73,96,100,1.19,overcast clouds
83,Lebu,CL,-37.6167,-73.65,60.94,82,0,17.25,clear sky
84,Tevaitoa,PF,-16.7833,-151.5,81.64,71,17,17.74,light rain
85,Vaini,TO,-21.2,-175.2,82.4,89,75,11.5,light rain
86,Sitka,US,57.0531,-135.33,39.2,81,90,4.61,overcast clouds
87,Harindanga,IN,22.0383,88.3214,62.6,88,0,6.82,mist
88,Armidale,AU,-30.5167,151.65,77.0,56,100,1.99,overcast clouds
89,Bathsheba,BB,13.2167,-59.5167,78.8,73,40,14.97,scattered clouds
90,Turukhansk,RU,65.8167,87.9833,-42.36,74,0,7.87,clear sky
91,Upata,VE,8.0086,-62.3989,75.99,80,81,3.0,broken clouds
92,Mataura,NZ,-46.1927,168.8643,62.01,80,81,7.0,broken clouds
93,Mirzapur,IN,25.15,82.5833,51.8,100,90,4.43,fog
94,Ribeira Grande,PT,38.5167,-28.7,59.76,73,100,10.09,overcast clouds
95,Kansanshi,ZM,-12.0951,26.4273,60.64,99,100,2.24,overcast clouds
96,Linguere,SN,15.3953,-15.1193,73.4,23,0,6.91,clear sky
97,Nikolskoye,RU,59.7035,30.7861,18.0,93,90,8.95,overcast clouds
98,Khandbari,NP,27.3747,87.2039,57.49,46,0,0.4,clear sky
99,Gazanjyk,TM,39.2446,55.5154,26.53,93,0,6.62,clear sky
100,Geraldton,AU,-28.7667,114.6,87.8,45,0,13.8,clear sky
101,Kailahun,SL,8.2833,-10.5667,66.29,97,48,1.07,scattered clouds
102,Pisco,PE,-13.7,-76.2167,69.8,83,0,6.91,clear sky
103,Leningradskiy,RU,69.3833,178.4167,-13.02,87,100,10.25,overcast clouds
104,Hithadhoo,MV,-0.6,73.0833,82.17,72,50,8.16,scattered clouds
105,Sandnessjoen,NO,66.0217,12.6316,32.0,64,75,36.82,light snow
106,Launceston,AU,-41.45,147.1667,77.0,31,75,18.41,broken clouds
107,Meadow Lake,US,34.8014,-106.5436,44.6,53,20,4.61,few clouds
108,Repatriacion,PY,-25.5333,-55.95,71.06,97,33,4.47,scattered clouds
109,Komsomolskiy,UZ,40.4272,71.7189,32.0,55,75,39.12,light snow
110,Waitati,NZ,-45.75,170.5667,59.4,66,99,4.79,light rain
111,Kapit,MY,2.0167,112.9333,88.66,62,81,0.34,broken clouds
112,Caraquet,CA,47.7941,-64.9386,6.8,85,100,4.61,overcast clouds
113,Misratah,LY,32.3754,15.0925,56.28,48,100,15.19,overcast clouds
114,Talnakh,RU,69.4865,88.3972,-40.34,77,20,2.66,few clouds
115,Chuy,UY,-33.6971,-53.4616,67.75,83,0,9.51,clear sky
116,Laguna,US,38.421,-121.4238,54.0,50,1,4.61,clear sky
117,Bangangte,CM,5.1409,10.5198,59.54,91,100,0.74,overcast clouds
118,Ballina,AU,-28.8667,153.5667,82.4,54,40,14.97,scattered clouds
119,Carnarvon,AU,-24.8667,113.6333,82.4,74,75,13.8,broken clouds
120,Mokhotlong,LS,-29.2894,29.0675,54.07,74,61,0.54,broken clouds
121,Kirakira,SB,-10.4544,161.9205,85.01,67,83,11.07,broken clouds
122,Lichinga,MZ,-13.3128,35.2406,64.4,100,75,8.05,fog
123,Lavrentiya,RU,65.5833,-171.0,22.89,97,100,21.05,light snow
124,Dudinka,RU,69.4058,86.1778,-44.5,78,9,2.62,clear sky
125,Russell,US,32.3502,-85.1999,55.99,100,90,3.44,overcast clouds
126,Darhan,MN,49.4867,105.9228,9.57,90,62,1.95,broken clouds
127,Ponta Do Sol,PT,32.6667,-17.1,60.01,82,51,3.0,broken clouds
128,Hermanus,ZA,-34.4187,19.2345,66.99,81,0,1.01,clear sky
129,Tuktoyaktuk,CA,69.4541,-133.0374,-7.6,77,90,12.66,overcast clouds
130,Challapata,BO,-18.9,-66.7667,47.93,68,79,11.27,heavy intensity rain
131,Lewistown,US,40.5992,-77.5714,41.0,52,20,25.32,few clouds
132,Netrakona,BD,24.8833,90.7167,66.04,53,32,6.85,scattered clouds
133,San Cristobal,VE,7.7669,-72.225,65.05,85,37,1.36,scattered clouds
134,Yichang,CN,30.7144,111.2847,51.01,65,100,1.99,overcast clouds
135,Loreto,MX,22.2667,-101.9667,59.79,45,18,7.0,few clouds
136,Awbari,LY,26.5921,12.7805,44.02,56,0,5.91,clear sky
137,Paamiut,GL,61.994,-49.6678,24.01,86,2,4.12,clear sky
138,Baindur,IN,13.8667,74.6333,77.83,51,47,3.67,scattered clouds
139,Ponta Delgada,PT,37.7333,-25.6667,54.0,94,20,2.3,few clouds
140,Chavakachcheri,LK,9.6579,80.1643,79.77,82,76,9.57,broken clouds
141,Viedma,AR,-40.8135,-62.9967,87.01,35,0,1.01,clear sky
142,Fairbanks,US,64.8378,-147.7164,1.4,85,20,3.44,few clouds
143,La Palma,US,33.8464,-118.0467,61.0,63,1,6.2,clear sky
144,Bolnisi,GE,41.4479,44.5384,23.0,80,0,2.3,clear sky
145,Dwarka,IN,22.2394,68.9678,68.43,82,0,7.4,clear sky
146,Port Moresby,PG,-9.4431,147.1797,89.6,62,40,6.91,scattered clouds
147,Kruisfontein,ZA,-34.0033,24.7314,68.0,93,100,1.99,overcast clouds
148,Butaritari,KI,3.0707,172.7902,79.86,81,54,13.98,moderate rain
149,Donskoye,RU,45.4552,41.9741,33.8,64,40,11.18,scattered clouds
150,Gamba,GA,-2.65,10.0,76.64,89,100,5.66,light rain
151,Whitehorse,CA,60.7161,-135.0538,12.2,85,75,11.5,broken clouds
152,Naze,JP,28.3667,129.4833,68.0,94,75,13.8,light rain
153,Klaksvik,FO,62.2266,-6.589,35.6,69,40,21.85,light snow
154,Prainha,BR,-1.8,-53.48,72.34,96,96,2.68,light rain
155,Suda,RU,59.1525,37.5582,10.4,85,90,4.47,snow
156,Comodoro Rivadavia,AR,-45.8667,-67.5,75.2,35,0,20.71,clear sky
157,East London,ZA,-33.0153,27.9116,69.8,94,0,2.3,clear sky
158,Palana,RU,59.1167,159.9667,-10.17,91,77,1.05,broken clouds
159,Zaragoza,ES,41.6561,-0.8773,55.0,82,90,5.75,overcast clouds
160,Labuan,MY,5.2767,115.2417,84.2,74,40,4.61,scattered clouds
161,Waren,DE,53.5167,12.6833,46.99,73,100,11.01,overcast clouds
162,Hay River,CA,60.8156,-115.7999,-2.2,78,100,3.44,overcast clouds
163,New Norfolk,AU,-42.7826,147.0587,72.0,51,98,5.01,overcast clouds
164,Kutum,SD,14.2,24.6667,46.49,50,72,9.19,broken clouds
165,Port Alfred,ZA,-33.5906,26.891,66.0,95,0,1.01,clear sky
166,Ngunguru,NZ,-35.6167,174.5,72.0,56,95,7.0,overcast clouds
167,Merauke,ID,-8.4667,140.3333,84.47,69,98,6.33,overcast clouds
168,Ixtapa,MX,20.7,-105.2,75.0,83,1,13.8,clear sky
169,Point Fortin,TT,10.1833,-61.6833,73.0,92,0,13.51,clear sky
170,Kodiak,US,57.79,-152.4072,42.8,81,90,16.11,mist
171,Malakal,SS,9.5334,31.6605,71.13,26,100,9.95,overcast clouds
172,Ostrovnoy,RU,68.0531,39.5131,0.43,91,99,8.46,overcast clouds
173,Berlevag,NO,70.8578,29.0864,21.09,93,100,21.85,light snow
174,Baykit,RU,61.67,96.37,-40.05,74,91,4.45,overcast clouds
175,Santa Rosalia,MX,27.3167,-112.2833,57.7,82,0,1.81,clear sky
176,Whyalla,AU,-33.0333,137.5833,89.6,20,0,17.27,clear sky
177,Provideniya,RU,64.3833,-173.3,26.6,93,90,26.84,snow
178,Kahului,US,20.8947,-156.47,73.4,73,40,20.71,light rain
179,Torbay,CA,47.6666,-52.7314,32.0,93,90,24.16,snow
180,Westerland,DE,54.9079,8.3033,39.99,93,90,8.05,overcast clouds
181,Shu,KZ,43.5983,73.7614,28.99,79,100,5.99,light snow
182,San Miguel,SV,13.4833,-88.1833,77.99,52,0,1.86,clear sky
183,Bambous Virieux,MU,-20.3428,57.7575,82.99,74,20,9.22,few clouds
184,Carballo,ES,43.213,-8.691,46.99,93,100,5.99,light rain
185,Vila Velha,BR,-20.3297,-40.2925,75.99,88,20,2.3,light rain
186,Labuhan,ID,-6.8844,112.2051,82.69,79,93,9.35,overcast clouds
187,Chegdomyn,RU,51.1167,133.0167,-12.91,82,36,1.21,scattered clouds
188,Nome,US,64.5011,-165.4064,28.4,86,40,9.22,scattered clouds
189,Vardo,NO,70.3705,31.1107,23.0,95,100,26.78,snow
190,Christchurch,NZ,-43.5333,172.6333,66.99,59,74,19.57,broken clouds
191,Cockburn Town,TC,21.4612,-71.1419,75.38,81,65,17.13,broken clouds
192,Marzuq,YE,14.4,46.4667,52.03,41,55,4.56,broken clouds
193,Clyde River,CA,70.4692,-68.5914,-2.2,84,1,4.61,clear sky
194,Kavaratti,IN,10.5669,72.642,81.82,71,47,10.54,scattered clouds
195,Tateyama,JP,34.9833,139.8667,60.8,63,20,5.75,few clouds
196,Bam,IR,29.106,58.357,36.52,69,22,12.88,few clouds
197,Shelburne,CA,44.0787,-80.2041,34.0,94,60,15.68,broken clouds
198,Zambezi,ZM,-13.5432,23.1047,63.54,97,100,3.58,moderate rain
199,Pangnirtung,CA,66.1451,-65.7125,23.61,79,98,7.27,overcast clouds
200,Saint-Medard-En-Jalles,FR,44.8969,-0.7214,50.0,87,0,9.22,clear sky
201,San Rafael,AR,-34.6177,-68.3301,81.52,18,0,10.09,clear sky
202,Bengkulu,ID,-3.8004,102.2655,83.61,65,98,7.76,overcast clouds
203,Bagepalli,IN,13.7847,77.7931,69.8,100,40,6.91,mist
204,Saint-Pierre,RE,-21.3393,55.4781,82.4,74,0,4.61,clear sky
205,Vila Franca Do Campo,PT,37.7167,-25.4333,54.0,94,20,2.3,few clouds
206,Aranjuez,ES,40.0311,-3.6025,52.0,87,100,19.98,overcast clouds
207,Moyale,KE,3.5167,39.0584,68.92,68,100,5.86,overcast clouds
208,Zhanakorgan,KZ,43.9098,67.2495,11.88,91,100,13.6,overcast clouds
209,Pasto,CO,1.2136,-77.2811,53.85,92,100,1.92,moderate rain
210,Chulman,RU,56.8479,124.9104,-24.97,84,13,0.87,few clouds
211,Douglas,US,41.3,-96.167,33.01,64,1,6.73,clear sky
212,Malanville,BJ,11.8685,3.3899,65.97,24,91,9.15,overcast clouds
213,Abu Ghosh,IL,31.8059,35.1093,45.0,76,0,6.91,clear sky
214,La Ronge,CA,55.1001,-105.2842,6.8,66,100,10.36,overcast clouds
215,Evensk,RU,61.95,159.2333,-2.88,82,99,1.1,overcast clouds
216,Don Sak,TH,9.3168,99.6918,84.2,70,20,4.61,few clouds
217,Port Hardy,CA,50.6996,-127.4199,32.0,93,20,5.75,few clouds
218,Bayonet Point,US,28.3267,-82.6834,59.0,92,99,7.81,overcast clouds
219,Bull Savanna,JM,17.8868,-77.5902,71.17,83,25,6.15,scattered clouds
220,George,ZA,-33.963,22.4617,64.4,100,20,3.44,few clouds
221,San Andres,CO,12.5847,-81.7006,80.6,74,20,13.8,few clouds
222,Ancud,CL,-41.8697,-73.8203,62.01,88,0,1.14,clear sky
223,Port Blair,IN,11.6667,92.75,79.47,56,4,7.43,clear sky
224,Dengzhou,CN,37.8086,120.7508,32.99,89,99,15.99,overcast clouds
225,Iqaluit,CA,63.7506,-68.5145,32.0,69,75,23.02,snow
226,Guerrero Negro,MX,27.9769,-114.0611,60.31,68,0,5.68,clear sky
227,Mar Del Plata,AR,-38.0023,-57.5575,71.01,94,0,6.91,clear sky
228,Houlton,US,46.1262,-67.8403,5.0,85,1,3.44,clear sky
229,Cromarty,GB,57.6805,-4.0339,37.99,87,75,11.5,moderate rain
230,Freeport,US,40.6576,-73.5832,35.6,74,1,13.65,clear sky
231,Cherskiy,RU,68.75,161.3,-40.07,81,31,2.08,scattered clouds
232,Tessalit,ML,20.1986,1.0114,57.27,31,11,10.51,few clouds
233,Tuatapere,NZ,-46.1333,167.6833,62.01,80,77,7.0,broken clouds
234,Hami,CN,42.8,93.45,25.92,73,0,3.76,clear sky
235,Adeje,ES,28.1227,-16.726,66.2,82,40,2.3,scattered clouds
236,Terrace,CA,54.5163,-128.6035,26.6,80,90,17.27,overcast clouds
237,Barrow,US,71.2906,-156.7887,1.4,71,90,27.63,overcast clouds
238,Sur,OM,22.5667,59.5289,67.08,53,0,0.31,clear sky
239,Tasiilaq,GL,65.6145,-37.6368,12.2,62,75,5.75,broken clouds
240,Cayenne,GF,4.9333,-52.3333,73.4,100,0,12.48,clear sky
241,Ketchikan,US,55.3422,-131.6461,33.8,80,1,10.36,clear sky
242,Sioux Lookout,CA,50.1001,-91.917,-5.8,77,90,12.66,snow
243,Biala Podlaska,PL,52.0324,23.1165,30.2,93,29,6.71,mist
244,Luderitz,NA,-26.6481,15.1594,68.67,69,18,12.55,few clouds
245,Lakatoro,VU,-16.0999,167.4164,85.19,70,48,6.98,light rain
246,Kaeo,NZ,-35.1,173.7833,72.0,56,83,7.0,broken clouds
247,Saint-Joseph,RE,-21.3667,55.6167,82.4,74,0,4.61,clear sky
248,Nyuksenitsa,RU,60.4128,44.2397,-17.01,87,95,2.39,overcast clouds
249,Verkhoturye,RU,58.8627,60.8054,-21.96,86,60,5.46,broken clouds
250,Goreloye,RU,52.937,41.5043,28.08,98,100,7.18,snow
251,Shenjiamen,CN,29.9576,122.298,50.92,97,99,7.38,overcast clouds
252,Chilca,PE,-12.5211,-76.7372,73.99,73,0,11.5,clear sky
253,Altay,CN,47.8667,88.1167,23.63,85,53,3.98,broken clouds
254,Chimore,BO,-16.9833,-65.1333,75.54,66,79,2.51,broken clouds
255,Tarn Taran,IN,31.45,74.9253,44.6,100,90,3.87,fog
256,Dangriga,BZ,16.9692,-88.2321,73.99,94,41,9.17,light rain
257,Gazojak,TM,41.1875,61.4036,21.99,90,44,12.37,scattered clouds
258,Northam,GB,51.0333,-4.2167,39.99,89,89,3.0,overcast clouds
259,Flinders,AU,-34.5833,150.8552,82.0,67,29,14.0,scattered clouds
260,Beloslav,BG,43.1833,27.7,39.0,75,0,5.75,clear sky
261,Usogorsk,RU,63.4106,48.6872,-15.09,88,60,5.17,broken clouds
262,Aguimes,ES,27.9054,-15.4461,64.4,88,40,13.8,scattered clouds
263,Linhares,BR,-19.3911,-40.0722,71.31,88,23,1.28,few clouds
264,Nokaneng,BW,-19.6667,22.2667,70.59,90,100,7.43,light rain
265,Souillac,MU,-20.5167,57.5167,80.6,74,20,9.22,few clouds
266,Mayo,US,38.8876,-76.5119,39.99,75,1,8.93,clear sky
267,Barra,BR,-11.0894,-43.1417,78.55,60,60,12.35,broken clouds
268,Knokke-Heist,BE,51.3333,3.3333,42.01,93,75,19.57,broken clouds
269,Sao Joao Da Barra,BR,-21.6403,-41.0511,75.06,88,30,4.79,scattered clouds
270,Beipiao,CN,41.7919,120.7792,19.49,81,0,9.91,clear sky
271,Watertown,US,42.3709,-71.1828,32.0,74,90,4.61,overcast clouds
272,Touros,BR,-5.1989,-35.4608,75.2,88,40,3.44,scattered clouds
273,Alexandria,EG,31.2156,29.9553,51.8,76,40,3.44,scattered clouds
274,Narsaq,GL,60.9167,-46.05,21.2,58,0,4.61,clear sky
275,Deputatskiy,RU,69.3,139.9,-30.89,85,100,2.91,overcast clouds
276,Vangaindrano,MG,-23.35,47.6,78.46,92,37,3.65,scattered clouds
277,Khasan,RU,42.4308,130.6434,29.41,92,47,7.92,scattered clouds
278,Zyryanka,RU,65.75,150.85,-40.18,79,36,3.96,scattered clouds
279,Mednogorsk,RU,51.4128,57.595,-8.57,91,99,8.05,overcast clouds
280,Sarandi,BR,-23.4436,-51.8739,73.4,94,75,8.05,broken clouds
281,Aklavik,CA,68.2191,-135.0107,1.4,85,64,4.61,broken clouds
282,Dicabisagan,PH,17.0818,122.4157,82.02,75,62,6.02,heavy intensity rain
283,Itoman,JP,26.1247,127.6694,69.8,94,75,17.27,broken clouds
284,Nioki,CD,-2.7167,17.6833,72.05,92,55,2.21,broken clouds
285,Elk City,US,35.412,-99.4043,42.8,93,1,5.75,clear sky
286,Rustenburg,ZA,-25.6676,27.2421,68.76,69,25,5.44,scattered clouds
287,Celestun,MX,20.8667,-90.4,70.63,88,0,12.48,clear sky
288,Skegness,GB,53.1436,0.3363,37.0,87,0,12.66,clear sky
289,Benguela,AO,-12.5763,13.4055,73.78,78,98,3.91,overcast clouds
290,Waingapu,ID,-9.6567,120.2641,87.12,65,73,10.56,light rain
291,Otane,NZ,-39.8833,176.6333,72.0,51,91,5.99,overcast clouds
292,Manicore,BR,-5.8092,-61.3003,73.4,100,40,1.25,scattered clouds
293,Broome,US,42.2506,-75.833,34.0,64,90,6.91,light snow
294,Kloulklubed,PW,7.0419,134.2556,84.2,79,75,10.36,light rain
295,Bandarbeyla,SO,9.4942,50.8122,72.66,81,33,16.02,scattered clouds
296,Brisbane,AU,-27.4679,153.0281,84.0,50,40,12.66,scattered clouds
297,Arman,RU,59.7,150.1667,-4.59,79,71,5.41,broken clouds
298,Galesong,ID,-5.3166,119.3661,84.2,79,20,5.75,few clouds
299,Constitucion,CL,-35.3333,-72.4167,58.05,88,16,5.5,few clouds
300,Ambam,CM,2.3833,11.2833,70.66,88,95,3.8,overcast clouds
301,Nanortalik,GL,60.1432,-45.2371,23.02,88,0,4.03,clear sky
302,Yulara,AU,-25.2406,130.9889,105.8,6,29,10.36,scattered clouds
303,Kropotkin,RU,45.4375,40.5756,26.78,95,12,7.29,few clouds
304,Mutis,CO,6.2262,-77.4044,77.5,84,100,5.23,overcast clouds
305,Mareeba,AU,-17.0,145.4333,84.99,74,40,8.05,scattered clouds
306,Nizhniy Tsasuchey,RU,50.5167,115.1333,8.69,84,71,7.23,broken clouds
307,Wanning,CN,18.8003,110.3967,73.98,80,68,7.31,broken clouds
308,Gambela,ET,8.25,34.5833,73.29,43,71,1.81,broken clouds
309,Inirida,CO,3.8653,-67.9239,73.22,97,100,3.11,light rain
310,Petropavlovsk-Kamchatskiy,RU,53.0452,158.6483,15.8,53,9,2.24,clear sky
311,Alvares Machado,BR,-22.0794,-51.4719,73.4,88,0,3.44,clear sky
312,Maragogi,BR,-9.0122,-35.2225,75.94,83,83,7.85,broken clouds
313,Waipawa,NZ,-41.4122,175.5153,69.8,43,79,19.57,broken clouds
314,Fort Nelson,CA,58.8053,-122.7002,12.2,85,75,2.3,broken clouds
315,Ust-Nera,RU,64.5667,143.2,-26.21,75,46,1.3,scattered clouds
316,Resistencia,AR,-27.4606,-58.9839,78.8,78,75,9.22,broken clouds
317,Olafsvik,IS,64.8945,-23.7142,28.76,89,18,26.71,few clouds
318,Cap Malheureux,MU,-19.9842,57.6142,82.99,67,17,7.0,few clouds
319,Ola,RU,59.5833,151.2833,-3.24,77,77,5.26,broken clouds
320,Derzhavinsk,KZ,51.1,66.3167,-9.99,89,92,13.22,overcast clouds
321,Campina Verde,BR,-19.5356,-49.4864,73.22,73,91,6.69,overcast clouds
322,Alofi,NU,-19.0595,-169.9187,86.0,74,75,8.05,broken clouds
323,Takaka,NZ,-40.85,172.8,64.99,73,84,7.0,moderate rain
324,Omboue,GA,-1.5746,9.2618,77.05,84,100,2.3,overcast clouds
325,Novovasylivka,UA,46.8315,35.7536,35.58,93,38,9.4,scattered clouds
326,Nargana,PA,9.4428,-78.5906,79.03,76,31,13.24,scattered clouds
327,Rocha,UY,-34.4833,-54.3333,63.73,94,0,6.15,clear sky
328,Diffa,NE,13.3154,12.6113,59.49,42,6,11.34,clear sky
329,Kembe,CF,4.6228,21.8865,65.39,37,82,2.98,broken clouds
330,Almaznyy,RU,48.0448,40.045,19.4,93,90,2.24,mist
331,Amapa,BR,1.0,-52.0,71.15,98,100,1.86,overcast clouds
332,Vao,NC,-22.6667,167.4833,75.02,79,84,18.86,broken clouds
333,Dumai,ID,1.6833,101.45,88.36,55,99,2.33,overcast clouds
334,Poum,NC,-20.2333,164.0167,79.48,76,100,16.35,light rain
335,Beisfjord,NO,68.3751,17.5988,15.8,53,20,20.71,few clouds
336,Ternate,ID,0.8,127.4,84.15,71,61,2.17,broken clouds
337,Tornio,FI,65.8481,24.1466,12.2,85,90,20.71,heavy snow
338,Isangel,VU,-19.55,169.2667,80.6,89,90,7.76,light rain
339,Sinnamary,GF,5.3833,-52.95,75.67,92,95,14.05,overcast clouds
340,Faanui,PF,-16.4833,-151.75,81.79,71,36,17.02,scattered clouds
341,Las Lomas,PA,8.4333,-82.4,74.05,76,11,4.63,few clouds
342,Katsuura,JP,35.1333,140.3,55.99,53,20,4.61,few clouds
343,Hasaki,JP,35.7333,140.8333,59.0,38,20,4.61,few clouds
344,San Quintin,MX,30.4833,-115.95,58.69,82,11,1.19,few clouds
345,Burhar,IN,23.2167,81.5333,67.55,27,0,2.26,clear sky
346,Qasigiannguit,GL,68.8193,-51.1922,15.8,67,90,2.3,overcast clouds
347,Wagar,SD,16.1525,36.2032,61.12,93,82,7.34,broken clouds
348,Harpanahalli,IN,14.8,75.9833,78.13,36,11,2.42,few clouds
349,Kilindoni,TZ,-7.9139,39.6668,82.04,80,100,18.25,light rain
350,Masallatah,LY,32.6167,14.0,53.17,47,23,14.29,few clouds
351,Qaqortoq,GL,60.7167,-46.0333,21.2,58,0,4.61,clear sky
352,Zerbst,DE,51.9667,12.0833,50.0,75,100,8.99,overcast clouds
353,Bilma,NE,18.6853,12.9164,57.99,33,0,8.79,clear sky
354,Aitape,PG,-3.1374,142.3475,85.21,66,100,6.13,overcast clouds
355,Fairview,US,40.8126,-73.999,39.99,56,1,3.44,clear sky
356,Sola,VU,-13.8833,167.55,80.6,89,90,13.04,moderate rain
357,Verkhoyansk,RU,67.5447,133.385,-30.35,81,100,1.12,overcast clouds
358,Novoagansk,RU,61.9449,76.6625,-20.25,87,100,9.78,light snow
359,Beloha,MG,-25.1667,45.05,82.24,74,80,7.31,light rain
360,Zalesovo,RU,53.9939,84.7431,13.95,96,100,10.13,light snow
361,Olinda,BR,-8.0089,-34.8553,77.0,69,40,10.36,scattered clouds
362,Sisimiut,GL,66.9395,-53.6735,20.28,79,0,6.51,clear sky
363,Trindade,BR,-16.6494,-49.4889,75.2,69,0,2.3,clear sky
364,Namibe,AO,-15.1961,12.1522,72.21,77,100,7.45,overcast clouds
365,Mizdah,LY,31.4451,12.9801,45.18,58,0,6.08,clear sky
366,Bay City,US,43.5945,-83.8889,34.0,69,90,12.66,overcast clouds
367,Rio Brilhante,BR,-21.8019,-54.5464,69.89,95,100,5.7,light rain
368,Wencheng,CN,33.0559,113.7978,50.74,47,99,7.02,overcast clouds
369,Alice Springs,AU,-23.7,133.8833,98.6,9,0,10.36,clear sky
370,Karratha,AU,-20.7377,116.8463,95.58,35,100,8.28,overcast clouds
371,Lompoc,US,34.6391,-120.4579,50.0,87,1,3.44,clear sky
372,Aurillac,FR,44.9167,2.45,46.99,85,91,5.99,overcast clouds
373,Tiksi,RU,71.6872,128.8694,-32.6,82,100,18.01,overcast clouds
374,Udachnyy,RU,66.4167,112.4,-54.9,59,63,2.84,broken clouds
375,Salcininkai,LT,54.3,25.3833,33.01,93,75,12.66,broken clouds
376,Rakitnoye,RU,50.8389,35.8515,26.6,100,90,4.47,fog
377,Banjarmasin,ID,-3.3244,114.591,82.4,83,75,5.75,broken clouds
378,Namtsy,RU,62.7161,129.6658,-56.2,58,90,2.08,fog
379,Karpogory,RU,64.0019,44.4451,-19.41,87,11,3.78,few clouds
380,Zhezkazgan,KZ,47.8043,67.7144,-5.17,89,59,8.25,broken clouds
381,Linjiang,CN,41.8069,126.9078,33.46,86,84,2.04,broken clouds
382,Asau,RO,46.4333,26.4,33.01,69,98,4.9,overcast clouds
383,Altamira,BR,-3.2033,-52.2064,70.61,97,98,1.45,heavy intensity rain
384,Sorong,ID,-0.8833,131.25,82.62,81,83,9.01,broken clouds
385,Manoharpur,IN,27.3,75.95,51.8,54,0,2.3,haze
386,Mahon,ES,39.8885,4.2658,57.2,77,0,10.36,clear sky
387,Lardos,GR,36.0942,28.0157,53.6,82,75,3.44,light rain
388,Joao Camara,BR,-5.5375,-35.8197,75.2,88,40,3.44,scattered clouds
389,Jiwani,PK,25.05,61.7417,68.95,58,0,8.05,clear sky
390,Salina,US,38.8403,-97.6114,41.0,45,1,9.22,clear sky
391,Half Moon Bay,US,37.4636,-122.4286,50.0,87,90,3.44,overcast clouds
392,Marawi,PH,7.9986,124.2928,82.99,83,85,5.01,overcast clouds
393,Bertoua,CM,4.5833,13.6833,59.36,39,8,2.66,clear sky
394,Hirara,JP,24.8,125.2833,71.6,100,75,5.75,mist
395,Takoradi,GH,4.8845,-1.7554,78.31,86,100,5.66,overcast clouds
396,Camopi,GF,3.1655,-52.3158,71.37,98,100,2.08,overcast clouds
397,Along,IN,28.1667,94.7667,63.37,41,0,0.58,clear sky
398,Rawah,IQ,34.4816,41.9093,38.5,71,0,5.84,clear sky
399,Belgrade,RS,44.804,20.4651,44.6,65,0,10.36,clear sky
400,Kismayo,SO,-0.3582,42.5454,79.12,82,99,18.32,overcast clouds
401,Upernavik,GL,72.7868,-56.1549,25.45,98,100,10.49,overcast clouds
402,Esperance,AU,-33.8667,121.9,80.6,50,0,14.97,clear sky
403,Padang,ID,-0.9492,100.3543,86.0,70,20,1.14,few clouds
404,Havelock,US,34.8791,-76.9013,50.0,87,1,9.22,clear sky
405,Kumluca,TR,36.3703,30.2869,47.46,53,0,6.17,clear sky
406,Couva,TT,10.4225,-61.4675,77.0,1,3,3.0,clear sky
407,Jambi,ID,-1.6,103.6167,83.41,73,100,4.7,overcast clouds
408,Bhadrachalam,IN,17.6667,80.8833,81.18,57,0,4.7,clear sky
409,Limoges,FR,45.75,1.3333,46.4,87,0,13.8,clear sky
410,Saquena,PE,-4.6667,-73.5167,72.05,86,56,1.41,broken clouds
411,Airai,TL,-8.9266,125.4092,74.68,76,46,3.02,light rain
412,Kysyl-Syr,RU,63.8986,122.7617,-47.97,76,100,1.81,overcast clouds
413,Saint-Georges,GD,12.0564,-61.7485,78.8,83,20,11.5,light rain
414,Kokopo,PG,-4.352,152.2633,84.81,60,72,11.41,broken clouds
415,Manakara,MG,-22.1333,48.0167,80.67,85,96,5.91,light rain
416,Chiriqui Grande,PA,8.95,-82.1167,74.95,80,51,1.88,light rain
417,Alihe,CN,50.5667,123.7167,4.15,81,0,2.42,clear sky
418,Berdigestyakh,RU,62.0989,126.6992,-49.38,75,57,1.7,broken clouds
419,Curico,CL,-34.9833,-71.2333,68.0,64,0,1.77,clear sky
420,Changde,CN,29.0464,111.6783,48.92,75,100,3.8,overcast clouds
421,Prince Rupert,CA,54.3161,-130.3201,35.6,100,1,2.3,clear sky
422,Orlik,RU,52.5178,99.825,10.08,86,98,2.37,overcast clouds
423,La Rioja,ES,42.25,-2.5,44.6,87,20,1.14,light rain
424,Kilinochchi,LK,9.3961,80.3982,81.64,75,82,8.41,broken clouds
425,Sao Filipe,CV,14.8961,-24.4956,72.84,71,100,6.91,overcast clouds
426,Iquitos,PE,-3.7481,-73.2472,75.2,94,75,2.3,broken clouds
427,Tadine,NC,-21.55,167.8833,77.45,79,100,18.16,overcast clouds
428,Buluang,PH,13.3068,123.3425,82.9,82,27,4.85,scattered clouds
429,Mollendo,PE,-17.0231,-72.0147,70.23,78,100,9.55,overcast clouds
430,Iralaya,HN,15.0,-83.2333,76.98,87,17,10.09,light rain
431,Shingu,JP,33.7333,135.9833,57.2,100,75,2.3,broken clouds
432,Vostok,RU,46.4856,135.8833,3.83,83,0,5.75,clear sky
433,Kupang,ID,-10.1667,123.5833,86.0,79,75,19.57,broken clouds
434,Kyabram,AU,-36.3167,145.05,98.01,8,95,1.99,overcast clouds
435,Masyaf,SY,35.0653,36.3406,37.4,56,0,6.91,clear sky
436,Zelenoborskiy,RU,66.845,32.3622,0.23,93,100,16.84,overcast clouds
437,Barahona,DO,18.2085,-71.1008,74.89,81,30,5.39,scattered clouds
438,Troitskoye,RU,52.9821,84.6757,16.95,97,100,9.42,light snow
439,Renqiu,CN,38.6989,116.0936,38.79,66,3,8.3,clear sky
440,Lima,PE,-12.0432,-77.0282,73.99,73,0,11.5,clear sky
441,Tiznit,MA,29.5833,-9.5,52.11,77,0,1.12,clear sky
442,Dunedin,NZ,-45.8742,170.5036,57.67,68,88,7.27,overcast clouds
443,Meulaboh,ID,4.1363,96.1285,81.27,79,28,3.94,scattered clouds
444,Kaduqli,SD,11.0167,29.7167,63.91,28,100,15.14,overcast clouds
445,Devarkonda,IN,16.7,78.9333,78.08,56,15,6.13,few clouds
446,Blytheville,US,35.9273,-89.919,44.6,81,1,4.61,clear sky
447,Borujerd,IR,33.8973,48.7516,22.68,89,0,5.01,clear sky
448,Pacific Grove,US,36.6177,-121.9166,52.0,82,90,2.15,overcast clouds
449,Chapayeve,UA,49.3662,35.8749,30.2,100,90,6.71,fog
450,Homer,US,59.6425,-151.5483,39.99,81,90,6.91,light rain
451,Pacifica,US,37.6138,-122.4869,50.0,76,75,10.36,broken clouds
452,High Level,CA,58.5169,-117.136,12.2,92,90,2.3,light snow
453,Andenes,NO,69.3143,16.1194,21.0,79,75,42.57,broken clouds
454,Rio Gallegos,AR,-51.6226,-69.2181,51.8,46,0,8.05,clear sky
455,North Bend,US,43.4065,-124.2243,48.2,81,90,6.91,overcast clouds
456,Moussoro,TD,13.6408,16.4901,57.96,32,8,13.73,clear sky
457,Wagga Wagga,AU,-35.1167,147.3667,98.01,13,75,6.91,broken clouds
458,Pipri,IN,19.8,75.5333,64.4,77,0,3.91,haze
459,Canyon,US,34.9803,-101.9188,48.0,54,99,1.01,overcast clouds
460,Phalaborwa,ZA,-23.943,31.1411,69.8,100,70,5.75,broken clouds
461,Marsabit,KE,2.3284,37.9899,64.9,91,100,13.6,overcast clouds
462,Penzance,GB,50.1186,-5.5371,41.0,93,4,5.75,clear sky
463,Salina Cruz,MX,16.1667,-95.2,77.07,68,0,10.07,clear sky
464,Hattiesburg,US,31.3271,-89.2903,63.0,100,90,4.61,heavy intensity rain
465,Kongoussi,BF,13.3258,-1.5347,64.24,24,0,9.84,clear sky
466,El Real De Santa Maria,PA,8.109,-77.7325,73.11,94,62,1.12,broken clouds
467,Rock Sound,BS,24.9,-76.2,71.38,60,4,5.79,clear sky
468,Mitchell,US,43.7094,-98.0298,19.4,79,1,4.61,clear sky
469,Puerto Colombia,CO,10.9878,-74.9547,78.8,73,0,13.8,clear sky
470,Zhuanghe,CN,39.7008,122.9911,35.26,72,0,7.56,clear sky
471,Solnechnyy,RU,50.7214,136.6319,-3.44,86,78,3.71,broken clouds
472,Brae,GB,60.3964,-1.353,39.2,87,75,23.02,light rain
473,Iranduba,BR,-3.2847,-60.1861,75.2,94,20,3.44,light rain
474,The Valley,AI,18.217,-63.0578,77.0,83,20,4.61,few clouds
475,Sudbury,CA,46.49,-80.99,21.99,73,20,12.66,few clouds
476,Yeppoon,AU,-23.1333,150.7333,86.0,37,40,8.05,scattered clouds
477,Zinder,NE,13.8072,8.9881,58.06,33,0,12.55,clear sky
478,Peringat,MY,6.0333,102.2833,80.6,74,20,2.3,few clouds
479,Labrea,BR,-7.2586,-64.7981,71.06,98,100,1.41,overcast clouds
480,Pundaguitan,PH,6.3711,126.1689,83.14,73,62,8.05,light rain
481,Burnie,AU,-41.0667,145.9167,73.99,35,59,13.0,broken clouds
482,Bima,ID,-8.4667,118.7167,90.05,56,77,3.58,broken clouds
483,Pathein,MM,16.7833,94.7333,83.14,47,0,8.23,clear sky
484,Nevers,FR,46.9167,3.3333,50.0,81,75,16.11,broken clouds
485,Formosa,AR,-26.1775,-58.1781,77.0,94,0,4.61,clear sky
486,Ausa,ES,41.9271,2.2497,44.01,17,83,7.96,broken clouds
487,Druskininkai,LT,54.0167,23.9667,28.4,93,54,6.71,mist
488,Buala,SB,-8.145,159.5921,86.05,55,98,9.06,overcast clouds
489,Los Llanos De Aridane,ES,28.6585,-17.9182,66.2,77,75,5.75,broken clouds
490,Ucluelet,CA,48.9329,-125.5528,37.99,89,13,4.76,few clouds
491,Maniitsoq,GL,65.4167,-52.9,24.15,82,0,7.45,clear sky
492,Atambua,ID,-9.1061,124.8925,83.03,69,62,6.35,broken clouds
493,Aykhal,RU,66.0,111.5,-52.1,75,58,3.4,broken clouds
494,College,US,64.8569,-147.8028,1.4,85,20,3.44,few clouds
495,Erzin,TR,36.9559,36.2,32.0,100,0,4.61,clear sky
496,Tadotsu,JP,34.275,133.75,48.2,87,75,2.3,light rain
497,Korla,CN,41.7597,86.1469,27.03,77,97,2.98,overcast clouds
498,Keffi,NG,8.8486,7.8736,68.83,23,96,4.88,overcast clouds
499,Pedernales,DO,18.0384,-71.744,75.33,72,22,3.27,few clouds
500,Ayan,RU,56.45,138.1667,-14.8,73,100,12.3,overcast clouds
501,Hokitika,NZ,-42.7167,170.9667,59.86,82,35,12.82,scattered clouds
502,Trofors,NO,65.5333,13.4063,32.0,64,75,36.82,broken clouds
503,Meyzieu,FR,45.7667,5.0,51.8,76,90,8.05,overcast clouds
504,Diu,IN,20.7141,70.9822,73.33,37,0,5.17,clear sky
505,Chirongui,YT,-12.9319,45.1483,80.6,78,20,8.05,few clouds
506,Tocopilla,CL,-22.092,-70.1979,68.47,64,1,7.83,clear sky
507,Kinnelon,US,41.0018,-74.3671,30.99,74,75,5.17,broken clouds
508,Warrnambool,AU,-38.3833,142.4833,69.01,69,50,4.0,scattered clouds
509,Fukue,JP,32.6881,128.8419,62.6,88,75,8.05,broken clouds
510,La Reforma,MX,25.0833,-108.05,69.01,90,3,1.01,clear sky
511,Turinskaya Sloboda,RU,57.6232,64.3858,-21.55,87,24,5.73,few clouds
512,Aracaju,BR,-10.9111,-37.0717,80.6,74,20,11.5,few clouds
513,Mahebourg,MU,-20.4081,57.7,80.6,74,20,9.22,few clouds
514,Savinka,RU,50.0785,47.0994,15.13,97,100,11.39,overcast clouds
515,Tautira,PF,-17.7333,-149.15,86.0,66,75,6.91,broken clouds
516,Praia Da Vitoria,PT,38.7333,-27.0667,57.2,77,20,6.89,few clouds
517,Dongsheng,CN,39.8161,109.9776,28.35,69,32,6.93,scattered clouds
518,Mackenzie,CA,55.2999,-123.1698,15.8,92,90,3.44,overcast clouds
519,Tagusao,PH,9.1924,117.8141,82.62,75,87,4.12,light rain
520,Telimele,GN,10.9167,-13.3333,62.35,84,48,0.63,scattered clouds
521,Sorland,NO,67.667,12.6934,22.87,95,100,41.38,overcast clouds
522,Coquimbo,CL,-29.9533,-71.3436,60.8,82,0,2.3,clear sky
523,Da Lat,VN,11.9465,108.4419,71.01,67,76,1.25,broken clouds
524,Necochea,AR,-38.5473,-58.7368,73.13,51,0,19.89,clear sky
525,Acapulco,MX,16.8634,-99.8901,78.8,83,1,6.91,clear sky
526,Nueva Loja,EC,0.0847,-76.8828,71.83,96,100,1.05,moderate rain
527,Wuwei,CN,37.9281,102.6414,36.5,54,5,2.26,clear sky
528,Mackay,AU,-21.15,149.2,84.2,61,69,17.27,broken clouds
529,Bisira,PA,8.5196,-81.7115,58.32,100,69,5.99,broken clouds
530,Darnah,LY,32.767,22.6367,50.7,68,90,12.95,overcast clouds
531,Vestmanna,FO,62.1564,-7.1664,35.6,69,40,21.85,light snow
532,Miranda De Ebro,ES,42.6865,-2.947,51.8,76,75,28.77,light rain
533,Manado,ID,1.487,124.8455,87.8,66,40,3.44,light rain
534,Ulladulla,AU,-35.35,150.4667,95.0,18,0,19.57,clear sky
535,Zdvinsk,RU,54.7021,78.661,-15.2,89,79,8.34,broken clouds
536,Tura,IN,25.5198,90.2201,67.35,46,2,1.52,clear sky
537,Halifax,CA,44.6453,-63.5724,21.2,63,92,6.91,overcast clouds
538,Obihiro,JP,42.9172,143.2044,32.0,64,20,2.3,few clouds
539,Dekalb,US,33.7504,-84.2333,48.0,93,20,4.61,few clouds
540,Gangtok,IN,27.3333,88.6167,55.58,40,0,3.24,clear sky
541,Mogadishu,SO,2.0371,45.3438,77.7,84,1,16.2,clear sky
542,Carhuamayo,PE,-10.9167,-76.0333,38.89,93,94,5.95,overcast clouds
543,Rehoboth,NA,-23.3167,17.0833,72.07,67,93,8.19,overcast clouds
544,Angoche,MZ,-16.2325,39.9086,76.24,86,100,14.16,light rain
545,North Augusta,US,33.5018,-81.9651,55.4,71,1,6.91,clear sky
546,Araouane,ML,18.9048,-3.5265,59.81,26,18,13.2,few clouds
547,Kenora,CA,49.8167,-94.4337,-7.01,84,20,8.05,few clouds
548,Dalby,AU,-27.1833,151.2667,88.0,32,3,1.99,clear sky
549,Itarema,BR,-2.9248,-39.9167,78.62,81,100,11.56,moderate rain
550,Addis Abeba,ET,9.025,38.7469,50.0,46,20,6.91,few clouds
551,Codrington,AU,-38.2667,141.9667,69.98,52,84,11.79,broken clouds
552,Chester,US,40.1254,-75.8749,39.2,52,1,8.05,clear sky
553,Miri,MY,4.4148,114.0089,77.0,100,40,2.3,light rain
554,Moron,AR,-34.6534,-58.6198,81.0,55,0,8.01,clear sky
555,Batagay-Alyta,RU,67.8006,130.4114,-24.84,84,100,1.68,overcast clouds
556,Serenje,ZM,-13.2325,30.2352,61.74,98,100,0.78,light rain
557,Khorinsk,RU,52.1657,109.7726,-0.18,86,79,1.07,broken clouds
558,Hagerstown,US,39.6418,-77.72,42.8,52,1,9.22,clear sky
559,Almeirim,BR,-1.5233,-52.5817,72.77,94,92,3.42,overcast clouds
560,Kizukuri,JP,40.8061,140.3861,43.0,87,75,9.22,broken clouds
561,Port Hedland,AU,-20.3167,118.5667,87.8,48,90,16.11,overcast clouds
562,Najran,SA,17.4924,44.1277,50.0,46,0,5.75,dust
563,Juneau,US,58.3019,-134.4197,33.8,80,75,3.71,broken clouds
564,Turi,IT,40.9173,17.0212,54.0,79,100,5.99,overcast clouds
565,Yichun,CN,47.7,128.9,5.95,84,93,5.64,overcast clouds
566,Sobolevo,RU,54.4299,31.8996,24.01,98,92,9.33,overcast clouds
567,Sao Mateus Do Sul,BR,-25.8742,-50.3828,63.27,98,100,3.78,overcast clouds
568,Youghal,IE,51.95,-7.8506,35.6,87,20,5.75,few clouds
569,Saint Anthony,US,45.0205,-93.218,12.99,61,1,16.11,clear sky
570,Sukumo,JP,32.9333,132.7333,65.86,76,54,3.6,broken clouds
571,Pinerolo,IT,44.8833,7.35,37.99,82,34,2.59,scattered clouds
572,Koumac,NC,-20.5667,164.2833,79.84,76,95,8.61,overcast clouds
573,Simbahan,PH,6.3032,120.5836,81.93,70,80,2.55,broken clouds
574,Port-Cartier,CA,50.0334,-66.8654,8.6,66,100,4.61,overcast clouds
575,Aksarka,RU,66.5606,67.7975,-40.95,80,45,9.78,scattered clouds
576,Qinhuangdao,CN,39.9317,119.5883,34.32,67,0,10.98,clear sky
577,Rochegda,RU,62.8,43.25,-18.53,87,82,2.35,broken clouds
578,Killybegs,IE,54.6333,-8.45,34.0,95,3,1.01,clear sky
579,Kathu,TH,7.9178,98.3332,84.2,65,20,8.05,few clouds
580,Jaguarao,BR,-32.5661,-53.3758,66.24,87,5,8.46,clear sky
581,Shache,CN,38.4167,77.2406,29.37,79,16,4.07,few clouds
582,Hamilton,US,39.1834,-84.5333,41.0,52,1,10.36,clear sky
583,Lola,GN,7.8,-8.5333,65.28,93,4,2.46,clear sky
584,Pestravka,RU,52.405,49.9583,7.93,95,100,7.72,snow
585,Tosham,IN,28.8833,75.9167,61.39,31,0,6.71,clear sky
586,Gobabis,NA,-22.45,18.9667,68.34,79,100,16.84,light rain
587,Lokosovo,RU,61.1333,74.8167,-16.85,88,100,7.2,overcast clouds
588,Yerbogachen,RU,61.2767,108.0108,-44.27,78,58,4.23,broken clouds
589,Udankudi,IN,8.4333,78.0167,80.6,78,75,3.44,mist
590,Hammerfest,NO,70.6634,23.6821,12.2,73,0,20.71,clear sky
591,Xocali,AZ,39.913,46.7903,29.57,79,0,1.72,clear sky
592,Kununurra,AU,-15.7667,128.7333,77.0,100,40,10.51,moderate rain
593,Pak Phanang,TH,8.3511,100.202,87.8,66,20,3.44,few clouds
594,Martaban,MM,16.5314,97.6111,81.0,53,0,4.27,clear sky
595,Saint-Augustin,CA,51.226,-58.6502,14.74,91,100,5.41,overcast clouds
596,Charters Towers,AU,-20.1,146.2667,86.09,40,69,11.27,broken clouds
597,Abha,SA,18.2164,42.5053,50.0,40,0,2.84,dust
598,Biscarrosse,FR,44.3945,-1.1672,48.2,93,91,3.44,light rain
599,Cape Coast,GH,5.1053,-1.2466,78.22,88,64,5.61,broken clouds
600,Taltal,CL,-25.4,-70.4833,64.74,73,6,2.3,clear sky
601,Scarborough,GB,54.2797,-0.4044,36.0,82,0,5.01,clear sky
602,Walvis Bay,NA,-22.9575,14.5053,68.0,88,100,3.44,overcast clouds
603,Kambove,CD,-10.8764,26.5969,60.75,100,100,0.49,overcast clouds
604,Bad Orb,DE,50.2279,9.3478,50.0,76,100,14.0,overcast clouds
605,Mount Gambier,AU,-37.8333,140.7667,77.0,41,69,11.5,broken clouds
606,Kichmengskiy Gorodok,RU,59.9816,45.7854,-20.11,87,58,2.17,broken clouds
607,Dingle,PH,10.9995,122.6711,82.92,79,79,10.07,broken clouds
608,Onega,RU,63.9061,38.1404,-9.76,88,100,10.96,overcast clouds
609,Bubaque,GW,11.2833,-15.8333,77.76,64,100,8.25,overcast clouds
610,Aksu,CN,41.1231,80.2644,22.33,82,45,1.21,scattered clouds
611,Nova Olimpia,BR,-14.7972,-57.2881,72.23,93,100,2.8,light rain
612,Bocaiuva,BR,-17.1078,-43.815,71.6,60,0,6.26,clear sky
613,Nosy Varika,MG,-20.5833,48.5333,81.05,82,68,6.76,broken clouds
614,San Isidro,PE,-12.1167,-77.05,73.99,73,0,11.5,clear sky
615,Maumere,ID,-8.6199,122.2111,86.05,68,66,9.37,broken clouds
616,Ikwiriri,TZ,-7.9562,38.9716,75.99,95,99,3.24,light rain
617,Lar,IN,26.2039,83.9717,62.26,47,0,1.59,clear sky
618,Mahibadhoo,MV,3.7833,72.9667,82.13,68,76,6.93,broken clouds
619,Port Hawkesbury,CA,45.6169,-61.3485,15.8,92,40,2.59,scattered clouds
620,Dalbandin,PK,28.8947,64.4101,55.26,33,0,13.56,clear sky
621,Kashan,IR,33.9831,51.4364,31.59,81,0,1.23,clear sky
622,Semey,KZ,50.4111,80.2275,15.8,92,75,13.42,snow
623,Mehamn,NO,71.0357,27.8492,20.3,91,100,24.25,overcast clouds
624,Vilyuysk,RU,63.7553,121.6247,-49.09,76,100,1.34,overcast clouds
625,Kawalu,ID,-7.3817,108.2082,85.89,58,91,2.04,overcast clouds
626,Raudeberg,NO,61.9875,5.1352,36.0,84,87,7.78,overcast clouds
627,Salalah,OM,17.0151,54.0924,75.2,38,0,20.71,clear sky
628,Grindavik,IS,63.8424,-22.4338,26.6,80,75,24.16,broken clouds
629,Warmbad,NA,-28.45,18.7333,82.6,20,87,4.79,overcast clouds
630,Bogen,DE,48.9112,12.6896,35.01,88,100,2.71,light snow
631,Nouadhibou,MR,20.931,-17.0347,62.6,39,100,16.11,overcast clouds
632,Kassala,SD,15.451,36.4,62.89,91,97,9.51,overcast clouds
633,Nzega,RW,-2.479,29.5564,55.38,91,100,3.42,overcast clouds
634,Katima Mulilo,NA,-17.5,24.2667,68.5,95,100,1.92,light rain
635,Sayat,TM,38.7839,63.8803,21.2,86,75,9.22,broken clouds
636,Cabedelo,BR,-6.9811,-34.8339,77.0,88,20,4.61,few clouds
637,Nemuro,JP,43.3236,145.575,30.2,69,75,3.44,broken clouds
638,Faya,SA,18.3851,42.4509,50.0,40,0,4.38,dust
639,Ullal,IN,12.8,74.85,77.0,78,0,3.44,mist
640,Coihueco,CL,-36.6167,-71.8333,68.0,64,0,5.75,clear sky
641,Umtata,ZA,-31.5889,28.7844,66.2,100,67,5.75,broken clouds
642,Maneadero,MX,31.7167,-116.5667,57.99,83,0,0.83,clear sky
643,Kamaishi,JP,39.2667,141.8833,42.8,70,75,6.91,broken clouds
644,Creetown,GB,54.9015,-4.3792,39.2,75,20,20.71,moderate rain
645,Richards Bay,ZA,-28.783,32.0377,72.61,92,51,4.7,broken clouds
646,Sept-Iles,CA,50.2001,-66.3821,8.6,66,95,4.61,overcast clouds
647,Esterhazy,CA,50.65,-102.0843,8.6,78,69,6.91,broken clouds
648,Jalu,LY,29.0331,21.5482,43.5,62,0,7.16,clear sky
649,Bereznik,RU,62.8551,42.7072,-18.15,87,90,2.51,overcast clouds
650,San Bartolome De Tirajana,ES,27.9248,-15.5733,64.4,88,40,13.8,scattered clouds
651,Lixourion,GR,38.2019,20.4314,56.32,77,100,15.5,overcast clouds
652,Tabuk,PH,17.4189,121.4443,82.8,75,41,4.61,scattered clouds
653,Tamandare,BR,-8.7597,-35.1047,76.35,83,55,7.81,broken clouds
654,Baraolt,RO,46.0751,25.6003,34.0,88,52,1.01,broken clouds
655,Lexington,US,37.9887,-84.4777,37.99,87,1,9.22,clear sky
656,Luoyang,CN,34.6836,112.4536,47.32,49,100,7.9,overcast clouds
657,Barcelona,ES,41.3888,2.159,57.2,67,20,13.8,few clouds
658,Rorvik,NO,64.8621,11.2373,31.48,91,38,45.43,scattered clouds
659,Hernani,ES,43.2662,-1.9762,62.6,45,0,16.11,clear sky
660,Gizo,SB,-8.103,156.8419,85.33,63,23,10.65,few clouds
661,Muscat,OM,23.6139,58.5922,68.0,68,40,5.75,scattered clouds
662,Xichang,CN,27.8964,102.2634,46.98,54,19,1.25,few clouds
663,Caravelas,BR,-17.7125,-39.2481,74.68,83,2,3.44,clear sky
664,Okitipupa,NG,6.5047,4.7839,72.3,98,97,1.54,overcast clouds
665,Imbituba,BR,-28.24,-48.6703,71.6,94,75,2.3,light rain
666,Immokalee,US,26.4187,-81.4173,59.0,94,20,1.88,few clouds
667,Ambilobe,MG,-13.2,49.05,77.92,88,86,1.14,overcast clouds
668,Emerald,AU,-23.5333,148.1667,87.01,48,100,8.05,overcast clouds
669,Nuevo Ideal,MX,24.8875,-105.0728,51.84,81,63,5.7,broken clouds
670,San Jacinto,US,33.7839,-116.9586,55.99,73,2,2.1,clear sky
671,Tual,ID,-5.6667,132.75,84.13,72,51,5.97,broken clouds
672,Mount Hagen,PG,-5.8581,144.2274,71.08,81,89,1.43,overcast clouds
673,El Alto,PE,-4.2714,-81.2147,71.49,81,81,16.08,broken clouds
674,Palu,ID,-0.8917,119.8707,91.26,50,27,1.9,scattered clouds
675,Senanga,ZM,-16.1167,23.2667,66.87,96,100,4.18,light rain
676,Konakovo,RU,56.7,36.7667,19.63,98,98,6.8,snow
677,Safford,US,32.834,-109.7076,53.6,66,1,5.75,clear sky
678,Namatanai,PG,-3.6667,152.4333,84.49,58,100,7.02,overcast clouds
679,Dijkot,PK,31.2167,72.9833,59.67,32,84,7.7,broken clouds
680,Chudovo,RU,59.1167,31.6833,30.72,98,100,8.14,light rain
681,Letterkenny,IE,54.95,-7.7333,33.98,89,0,7.29,clear sky
682,Chippewa Falls,US,44.9369,-91.3929,14.0,57,1,14.97,clear sky
683,Doba,TD,8.65,16.85,61.95,28,12,2.71,few clouds
684,Tongzi,CN,28.7829,105.0877,56.62,60,25,3.49,scattered clouds
685,Lodja,CD,-3.4833,23.4333,68.7,93,100,2.35,overcast clouds
686,Fallon,US,39.4735,-118.7774,39.99,45,75,4.61,broken clouds
687,Nola,IT,40.922,14.5329,57.0,78,86,1.99,overcast clouds
688,Lasa,IT,46.6166,10.7002,34.0,93,75,3.44,light snow
689,Sidi Ali,DZ,36.0998,0.4206,52.63,77,100,11.81,overcast clouds
690,Altamont,US,42.2068,-121.7372,39.2,45,90,12.66,overcast clouds
691,Hailar,CN,49.2,119.7,-0.8,90,0,7.94,clear sky
692,Vanino,RU,49.0869,140.2543,5.47,73,21,7.29,few clouds
693,Oskemen,KZ,49.9565,82.6119,26.6,80,75,6.71,broken clouds
694,Mamallapuram,IN,12.6264,80.1722,77.0,100,34,2.93,fog
695,Margate,GB,51.3813,1.3862,39.0,84,20,3.0,few clouds
696,Partizanskoye,RU,55.5006,94.39,10.02,95,100,4.7,light snow
